{
  "type": "FeatureCollection",
  "crs": {
    "type": "name",
    "properties": {
      "name": "urn:ogc:def:crs:OGC:1.3:CRS84"
    }
  },
  "features": [
    {
      "type": "Feature",
      "properties": {
        "Business T": "Miller",
        "Name": "Weisenberger Mills",
        "Address": "2545 Weisenberger Mill Rd",
        "Address_2": null,
        "City": "Midway",
        "State": "KY",
        "Zipcode": 40347,
        "X": -84.65776,
        "Y": 38.13416,
        "Source": "KY Dept of Ag",
        "Updated": "2019-06-18"
      },
      "geometry": {
        "type": "Point",
        "coordinates": [
          -84.65776,
          38.13416
        ]
      }
    },
    {
      "type": "Feature",
      "properties": {
        "Business T": "Miller",
        "Name": "Louismill / MozzaPi",
        "Address": "12102 La Grange Rd",
        "Address_2": null,
        "City": "Louisville",
        "State": "KY",
        "Zipcode": 40223,
        "X": -85.53038,
        "Y": 38.26267,
        "Source": "KY Dept of Ag",
        "Updated": "2019-06-18"
      },
      "geometry": {
        "type": "Point",
        "coordinates": [
          -85.53038,
          38.26267
        ]
      }
    },
    {
      "type": "Feature",
      "properties": {
        "Business T": "Miller",
        "Name": "Hopkinsville Milling / Sunflour",
        "Address": "2001 S Walnut St",
        "Address_2": null,
        "City": "Hopkinsville",
        "State": "KY",
        "Zipcode": 42240,
        "X": -87.48754,
        "Y": 36.85608,
        "Source": "KY Dept of Ag",
        "Updated": "2019-06-18"
      },
      "geometry": {
        "type": "Point",
        "coordinates": [
          -87.48754,
          36.85608
        ]
      }
    },
    {
      "type": "Feature",
      "properties": {
        "Business T": "Miller",
        "Name": "Continental Mills",
        "Address": "100 Krusteaz Way",
        "Address_2": null,
        "City": "Hopkinsville",
        "State": "KY",
        "Zipcode": 42240,
        "X": -87.39499,
        "Y": 36.80544,
        "Source": "KY Dept of Ag",
        "Updated": "2019-06-18"
      },
      "geometry": {
        "type": "Point",
        "coordinates": [
          -87.39499,
          36.80544
        ]
      }
    },
    {
      "type": "Feature",
      "properties": {
        "Business T": "Miller",
        "Name": "Blend Pak Inc. / Bloomfield",
        "Address": "10039 Highgrove Rd",
        "Address_2": null,
        "City": "Bloomfield",
        "State": "KY",
        "Zipcode": 40008,
        "X": -85.34459,
        "Y": 37.91879,
        "Source": "KY Dept of Ag",
        "Updated": "2019-06-18"
      },
      "geometry": {
        "type": "Point",
        "coordinates": [
          -85.34459,
          37.91879
        ]
      }
    },
    {
      "type": "Feature",
      "properties": {
        "Business T": "Bakery",
        "Name": "Sunrise Bakery",
        "Address": "111 W Main St",
        "Address_2": null,
        "City": "Lexington",
        "State": "KY",
        "Zipcode": 40507,
        "X": -84.49702,
        "Y": 38.04668,
        "Source": "KY Dept of Ag",
        "Updated": "2019-06-18"
      },
      "geometry": {
        "type": "Point",
        "coordinates": [
          -84.49702,
          38.04668
        ]
      }
    },
    {
      "type": "Feature",
      "properties": {
        "Business T": "Bakery",
        "Name": "Bluegrass Baking Co.",
        "Address": "3101 Clays Mill Rd # 108",
        "Address_2": null,
        "City": "Lexington",
        "State": "KY",
        "Zipcode": 40503,
        "X": -84.53024,
        "Y": 38.02754,
        "Source": "KY Dept of Ag",
        "Updated": "2019-06-18"
      },
      "geometry": {
        "type": "Point",
        "coordinates": [
          -84.53024,
          38.02754
        ]
      }
    },
    {
      "type": "Feature",
      "properties": {
        "Business T": "Miller",
        "Name": "Sunflower Sundries",
        "Address": "434 Dividing Ridge Rd",
        "Address_2": null,
        "City": "Mt Olivet",
        "State": "KY",
        "Zipcode": 41064,
        "X": -83.95179,
        "Y": 38.51491,
        "Source": "KY Dept of Ag",
        "Updated": "2019-06-18"
      },
      "geometry": {
        "type": "Point",
        "coordinates": [
          -83.95179,
          38.51491
        ]
      }
    },
    {
      "type": "Feature",
      "properties": {
        "Business T": "Miller",
        "Name": "Great Bagel",
        "Address": "3650 Boston Road",
        "Address_2": "Suite 108",
        "City": "Lexington",
        "State": "KY",
        "Zipcode": 40514,
        "X": -84.55209,
        "Y": 37.97896,
        "Source": "KY Dept of Ag",
        "Updated": "2019-06-18"
      },
      "geometry": {
        "type": "Point",
        "coordinates": [
          -84.55209,
          37.97896
        ]
      }
    },
    {
      "type": "Feature",
      "properties": {
        "Business T": "Bakery",
        "Name": "Gluten-Free Miracles Bakery & Cafe",
        "Address": "145 Burt Rd",
        "Address_2": null,
        "City": "Lexington",
        "State": "KY",
        "Zipcode": 40503,
        "X": -84.51904,
        "Y": 38.00799,
        "Source": "KY Dept of Ag",
        "Updated": "2019-06-18"
      },
      "geometry": {
        "type": "Point",
        "coordinates": [
          -84.51904,
          38.00799
        ]
      }
    }
  ]
}